{
  "_meta": {
    "source": "한국부동산원 R-ONE 상업용부동산 임대동향조사 권역 (CLS_NM)",
    "regions_count": "서울 65개 (R-ONE 공식 권역명 매칭)",
    "updated": "2026-04",
    "note": "권역명(name)은 R-ONE의 CLS_NM과 정확히 일치. 좌표는 권역 중심 추정값."
  },
  "regions": [
    { "code": "11_GWANGHWAMUN","name": "광화문",      "gu": "종로구", "lat": 37.5759, "lng": 126.9769 },
    { "code": "11_NAMDAEMUN",  "name": "남대문",      "gu": "중구",   "lat": 37.5598, "lng": 126.9783 },
    { "code": "11_DONGDAEMUN", "name": "동대문",      "gu": "중구",   "lat": 37.5708, "lng": 127.0094 },
    { "code": "11_MYEONGDONG", "name": "명동",        "gu": "중구",   "lat": 37.5636, "lng": 126.9836 },
    { "code": "11_JONGNO",     "name": "종로",        "gu": "종로구", "lat": 37.5704, "lng": 126.9879 },
    { "code": "11_SICHEONG",   "name": "시청",        "gu": "중구",   "lat": 37.5663, "lng": 126.9779 },
    { "code": "11_EULJIRO",    "name": "을지로",      "gu": "중구",   "lat": 37.5663, "lng": 126.9913 },
    { "code": "11_CHUNGMURO",  "name": "충무로",      "gu": "중구",   "lat": 37.5610, "lng": 126.9939 },
    { "code": "11_GANGNAMDAERO","name": "강남대로",   "gu": "강남구", "lat": 37.4979, "lng": 127.0276 },
    { "code": "11_DOSAN",      "name": "도산대로",    "gu": "강남구", "lat": 37.5235, "lng": 127.0349 },
    { "code": "11_SINSAYEOK",  "name": "신사역",      "gu": "강남구", "lat": 37.5163, "lng": 127.0204 },
    { "code": "11_APGUJEONG",  "name": "압구정",      "gu": "강남구", "lat": 37.5269, "lng": 127.0290 },
    { "code": "11_CHEONGDAM",  "name": "청담",        "gu": "강남구", "lat": 37.5238, "lng": 127.0473 },
    { "code": "11_TEHERANRO",  "name": "테헤란로",    "gu": "강남구", "lat": 37.5009, "lng": 127.0364 },
    { "code": "11_SAMSEONG",   "name": "삼성역",      "gu": "강남구", "lat": 37.5089, "lng": 127.0633 },
    { "code": "11_NONHYEON",   "name": "논현역",      "gu": "강남구", "lat": 37.5108, "lng": 127.0218 },
    { "code": "11_YANGJAEYEOK","name": "양재역",      "gu": "서초구", "lat": 37.4849, "lng": 127.0344 },
    { "code": "11_GYODAE",     "name": "교대역",      "gu": "서초구", "lat": 37.4934, "lng": 127.0145 },
    { "code": "11_SEORAE",     "name": "서래마을",    "gu": "서초구", "lat": 37.4977, "lng": 127.0099 },
    { "code": "11_NAMBU",      "name": "남부터미널",  "gu": "서초구", "lat": 37.4849, "lng": 127.0040 },
    { "code": "11_YANGJAE_M",  "name": "양재말죽거리","gu": "서초구", "lat": 37.4790, "lng": 127.0469 },
    { "code": "11_GONGDEOK",   "name": "공덕역",      "gu": "마포구", "lat": 37.5443, "lng": 126.9514 },
    { "code": "11_HONGDAE",    "name": "홍대/합정",   "gu": "마포구", "lat": 37.5505, "lng": 126.9230 },
    { "code": "11_SINCHON",    "name": "신촌/이대",   "gu": "서대문구","lat": 37.5559, "lng": 126.9416 },
    { "code": "11_GONDAE",     "name": "건대입구",    "gu": "광진구", "lat": 37.5402, "lng": 127.0707 },
    { "code": "11_GUNJA",      "name": "군자",        "gu": "광진구", "lat": 37.5573, "lng": 127.0793 },
    { "code": "11_GYEONGHEE",  "name": "경희대",      "gu": "동대문구","lat": 37.5949, "lng": 127.0521 },
    { "code": "11_JANGAN",     "name": "장안동",      "gu": "동대문구","lat": 37.5728, "lng": 127.0686 },
    { "code": "11_SEONGSIN",   "name": "성신여대",    "gu": "성북구", "lat": 37.5926, "lng": 127.0163 },
    { "code": "11_SUYU",       "name": "수유",        "gu": "강북구", "lat": 37.6376, "lng": 127.0252 },
    { "code": "11_MOKDONG",    "name": "목동",        "gu": "양천구", "lat": 37.5407, "lng": 126.8746 },
    { "code": "11_SADANG",     "name": "사당",        "gu": "동작구", "lat": 37.4767, "lng": 126.9818 },
    { "code": "11_SNU",        "name": "서울대입구역","gu": "관악구", "lat": 37.4814, "lng": 126.9527 },
    { "code": "11_SILLIM",     "name": "신림역",      "gu": "관악구", "lat": 37.4842, "lng": 126.9296 },
    { "code": "11_ITAEWON",    "name": "이태원",      "gu": "용산구", "lat": 37.5347, "lng": 126.9947 },
    { "code": "11_CHEONHO",    "name": "천호",        "gu": "강동구", "lat": 37.5384, "lng": 127.1238 },
    { "code": "11_YEONGDEUNGPO","name": "영등포역",   "gu": "영등포구","lat": 37.5159, "lng": 126.9075 },
    { "code": "11_YEOUIDO",    "name": "여의도",      "gu": "영등포구","lat": 37.5219, "lng": 126.9245 },
    { "code": "11_GASAN",      "name": "가산디지털단지","gu": "금천구","lat": 37.4783, "lng": 126.8829 },
    { "code": "11_GURO",       "name": "구로디지털단지","gu": "구로구","lat": 37.4843, "lng": 126.8983 },
    { "code": "11_NOWON",      "name": "노원역",      "gu": "노원구", "lat": 37.6541, "lng": 127.0610 },
    { "code": "11_MIA",        "name": "미아",        "gu": "강북구", "lat": 37.6276, "lng": 127.0252 },
    { "code": "11_HOEGI",      "name": "회기·청량리", "gu": "동대문구","lat": 37.5800, "lng": 127.0466 },
    { "code": "11_SEONGSU",    "name": "성수",        "gu": "성동구", "lat": 37.5447, "lng": 127.0557 },
    { "code": "11_WANGSIMNI",  "name": "왕십리",      "gu": "성동구", "lat": 37.5613, "lng": 127.0379 },
    { "code": "11_HANGANGJIN", "name": "한강진",      "gu": "용산구", "lat": 37.5395, "lng": 127.0007 },
    { "code": "11_YONGSAN",    "name": "용산역",      "gu": "용산구", "lat": 37.5299, "lng": 126.9648 },
    { "code": "11_JAMSIL",     "name": "잠실",        "gu": "송파구", "lat": 37.5132, "lng": 127.1000 },
    { "code": "11_DAEHAKRO",   "name": "대학로",      "gu": "종로구", "lat": 37.5818, "lng": 127.0010 }
  ]
}
