{
  "_meta": {
    "source": "한국부동산원 R-ONE 상업용부동산 임대동향조사 (2024 Q3 기준)",
    "updated": "2026-04",
    "note": "서울 주요 권역 대표 좌표. 정확한 권역 매핑은 R-ONE 공식 권역 구획도 (공공데이터 15086933) 참조."
  },
  "regions": [
    { "code": "11_DOSIM",      "name": "도심",          "gu": "종로구", "lat": 37.5701, "lng": 126.9835 },
    { "code": "11_GWANGHWAMUN","name": "광화문",        "gu": "종로구", "lat": 37.5759, "lng": 126.9769 },
    { "code": "11_MYEONGDONG", "name": "명동·남대문",   "gu": "중구",   "lat": 37.5636, "lng": 126.9836 },
    { "code": "11_DONGDAEMUN", "name": "동대문",        "gu": "중구",   "lat": 37.5708, "lng": 127.0094 },
    { "code": "11_CHUNGMURO",  "name": "충무로",        "gu": "중구",   "lat": 37.5610, "lng": 126.9939 },
    { "code": "11_GANGNAMDAERO","name": "강남대로",     "gu": "강남구", "lat": 37.4979, "lng": 127.0276 },
    { "code": "11_TEHERANRO",  "name": "테헤란로",      "gu": "강남구", "lat": 37.5009, "lng": 127.0364 },
    { "code": "11_SINSAYEOK",  "name": "신사역",        "gu": "강남구", "lat": 37.5163, "lng": 127.0204 },
    { "code": "11_APGUJEONG",  "name": "압구정",        "gu": "강남구", "lat": 37.5269, "lng": 127.0290 },
    { "code": "11_CHEONGDAM",  "name": "청담",          "gu": "강남구", "lat": 37.5238, "lng": 127.0473 },
    { "code": "11_GAROSU",     "name": "가로수길",      "gu": "강남구", "lat": 37.5197, "lng": 127.0234 },
    { "code": "11_NONHYEON",   "name": "논현역",        "gu": "강남구", "lat": 37.5108, "lng": 127.0218 },
    { "code": "11_SAMSEONG",   "name": "삼성역",        "gu": "강남구", "lat": 37.5090, "lng": 127.0633 },
    { "code": "11_SEOCHO",     "name": "서초",          "gu": "서초구", "lat": 37.4837, "lng": 127.0327 },
    { "code": "11_GANGNAMYEOK","name": "강남역",        "gu": "강남구", "lat": 37.4979, "lng": 127.0276 },
    { "code": "11_HONGDAE",    "name": "홍대·합정",     "gu": "마포구", "lat": 37.5505, "lng": 126.9230 },
    { "code": "11_SINCHON",    "name": "신촌",          "gu": "서대문구","lat": 37.5559, "lng": 126.9376 },
    { "code": "11_EWHA",       "name": "이대",          "gu": "서대문구","lat": 37.5564, "lng": 126.9456 },
    { "code": "11_DAEHAKRO",   "name": "대학로",        "gu": "종로구", "lat": 37.5818, "lng": 127.0010 },
    { "code": "11_GONDAE",     "name": "건대입구",      "gu": "광진구", "lat": 37.5402, "lng": 127.0707 },
    { "code": "11_JAMSIL",     "name": "잠실",          "gu": "송파구", "lat": 37.5132, "lng": 127.1000 },
    { "code": "11_SEOKCHON",   "name": "석촌·송파",     "gu": "송파구", "lat": 37.5050, "lng": 127.1090 },
    { "code": "11_CHEONHO",    "name": "천호",          "gu": "강동구", "lat": 37.5384, "lng": 127.1238 },
    { "code": "11_YEONGDEUNGPO","name": "영등포역",     "gu": "영등포구","lat": 37.5159, "lng": 126.9075 },
    { "code": "11_YEOUIDO",    "name": "여의도",        "gu": "영등포구","lat": 37.5219, "lng": 126.9245 },
    { "code": "11_GASAN",      "name": "가산디지털",    "gu": "금천구", "lat": 37.4783, "lng": 126.8829 },
    { "code": "11_GURO",       "name": "구로",          "gu": "구로구", "lat": 37.4843, "lng": 126.8983 },
    { "code": "11_SADANG",     "name": "사당",          "gu": "동작구", "lat": 37.4767, "lng": 126.9818 },
    { "code": "11_GWANAK",     "name": "관악·신림",     "gu": "관악구", "lat": 37.4842, "lng": 126.9296 },
    { "code": "11_NOWON",      "name": "노원역",        "gu": "노원구", "lat": 37.6541, "lng": 127.0610 },
    { "code": "11_MIA",        "name": "미아·수유",     "gu": "강북구", "lat": 37.6276, "lng": 127.0252 },
    { "code": "11_HOEGI",      "name": "회기·청량리",   "gu": "동대문구","lat": 37.5800, "lng": 127.0466 },
    { "code": "11_SEONGSU",    "name": "성수",          "gu": "성동구", "lat": 37.5447, "lng": 127.0557 },
    { "code": "11_WANGSIMNI",  "name": "왕십리",        "gu": "성동구", "lat": 37.5613, "lng": 127.0379 },
    { "code": "11_ITAEWON",    "name": "이태원",        "gu": "용산구", "lat": 37.5347, "lng": 126.9947 },
    { "code": "11_HANGANGJIN", "name": "한강진·한남",   "gu": "용산구", "lat": 37.5395, "lng": 127.0007 },
    { "code": "11_YONGSAN",    "name": "용산역",        "gu": "용산구", "lat": 37.5299, "lng": 126.9648 },
    { "code": "11_YANGCHEON",  "name": "양천·목동",     "gu": "양천구", "lat": 37.5376, "lng": 126.8669 },
    { "code": "11_GANGSEO",    "name": "강서·발산",     "gu": "강서구", "lat": 37.5582, "lng": 126.8350 },
    { "code": "11_EUNPYEONG",  "name": "은평·연신내",   "gu": "은평구", "lat": 37.6190, "lng": 126.9216 },
    { "code": "11_DOBONG",     "name": "도봉·창동",     "gu": "도봉구", "lat": 37.6532, "lng": 127.0476 },
    { "code": "11_JUNGNANG",   "name": "중랑·면목",     "gu": "중랑구", "lat": 37.5953, "lng": 127.0884 },
    { "code": "11_SEONGBUK",   "name": "성북·돈암",     "gu": "성북구", "lat": 37.5894, "lng": 127.0167 },
    { "code": "11_GEUMCHEON",  "name": "금천·시흥",     "gu": "금천구", "lat": 37.4566, "lng": 126.8956 }
  ]
}
